$GPGGA,155054.583,5232.005,N,01323.270,E,1,12,1.0,0.0,M,0.0,M,,*65
$GPGSA,A,3,01,02,03,04,05,06,07,08,09,10,11,12,1.0,1.0,1.0*30
$GPRMC,155054.583,A,5232.005,N,01323.270,E,361.5,048.0,040821,000.0,W*73
$GPGGA,155055.583,5232.088,N,01323.362,E,1,12,1.0,0.0,M,0.0,M,,*63
$GPGSA,A,3,01,02,03,04,05,06,07,08,09,10,11,12,1.0,1.0,1.0*30
$GPRMC,155055.583,A,5232.088,N,01323.362,E,334.1,054.5,040821,000.0,W*79
$GPGGA,155056.583,5232.158,N,01323.462,E,1,12,1.0,0.0,M,0.0,M,,*6B
$GPGSA,A,3,01,02,03,04,05,06,07,08,09,10,11,12,1.0,1.0,1.0*30
$GPRMC,155056.583,A,5232.158,N,01323.462,E,307.3,057.2,040821,000.0,W*77
$GPGGA,155057.583,5232.220,N,01323.558,E,1,12,1.0,0.0,M,0.0,M,,*6E
$GPGSA,A,3,01,02,03,04,05,06,07,08,09,10,11,12,1.0,1.0,1.0*30
$GPRMC,155057.583,A,5232.220,N,01323.558,E,276.5,065.8,040821,000.0,W*78
$GPGGA,155058.583,5232.266,N,01323.660,E,1,12,1.0,0.0,M,0.0,M,,*6B
$GPGSA,A,3,01,02,03,04,05,06,07,08,09,10,11,12,1.0,1.0,1.0*30
$GPRMC,155058.583,A,5232.266,N,01323.660,E,319.4,074.4,040821,000.0,W*78
$GPGGA,155059.583,5232.302,N,01323.792,E,1,12,1.0,0.0,M,0.0,M,,*65
$GPGSA,A,3,01,02,03,04,05,06,07,08,09,10,11,12,1.0,1.0,1.0*30
$GPRMC,155059.583,A,5232.302,N,01323.792,E,339.4,073.3,040821,000.0,W*74
$GPGGA,155100.583,5232.344,N,01323.931,E,1,12,1.0,0.0,M,0.0,M,,*6D
$GPGSA,A,3,01,02,03,04,05,06,07,08,09,10,11,12,1.0,1.0,1.0*30
$GPRMC,155100.583,A,5232.344,N,01323.931,E,396.4,074.5,040821,000.0,W*78
$GPGGA,155101.583,5232.389,N,01324.096,E,1,12,1.0,0.0,M,0.0,M,,*6E
$GPGSA,A,3,01,02,03,04,05,06,07,08,09,10,11,12,1.0,1.0,1.0*30
$GPRMC,155101.583,A,5232.389,N,01324.096,E,388.9,074.8,040821,000.0,W*74
$GPGGA,155102.583,5232.433,N,01324.258,E,1,12,1.0,0.0,M,0.0,M,,*6B
$GPGSA,A,3,01,02,03,04,05,06,07,08,09,10,11,12,1.0,1.0,1.0*30
$GPRMC,155102.583,A,5232.433,N,01324.258,E,364.0,078.1,040821,000.0,W*7F
$GPGGA,155103.583,5232.466,N,01324.416,E,1,12,1.0,0.0,M,0.0,M,,*66
$GPGSA,A,3,01,02,03,04,05,06,07,08,09,10,11,12,1.0,1.0,1.0*30
$GPRMC,155103.583,A,5232.466,N,01324.416,E,320.0,084.4,040821,000.0,W*74
$GPGGA,155104.583,5232.480,N,01324.560,E,1,12,1.0,0.0,M,0.0,M,,*69
$GPGSA,A,3,01,02,03,04,05,06,07,08,09,10,11,12,1.0,1.0,1.0*30
$GPRMC,155104.583,A,5232.480,N,01324.560,E,328.6,097.3,040821,000.0,W*70
$GPGGA,155105.583,5232.461,N,01324.706,E,1,12,1.0,0.0,M,0.0,M,,*65
$GPGSA,A,3,01,02,03,04,05,06,07,08,09,10,11,12,1.0,1.0,1.0*30
$GPRMC,155105.583,A,5232.461,N,01324.706,E,324.3,098.1,040821,000.0,W*78
$GPGGA,155106.583,5232.441,N,01324.851,E,1,12,1.0,0.0,M,0.0,M,,*69
$GPGSA,A,3,01,02,03,04,05,06,07,08,09,10,11,12,1.0,1.0,1.0*30
$GPRMC,155106.583,A,5232.441,N,01324.851,E,317.7,100.3,040821,000.0,W*72
$GPGGA,155107.583,5232.416,N,01324.990,E,1,12,1.0,0.0,M,0.0,M,,*66
$GPGSA,A,3,01,02,03,04,05,06,07,08,09,10,11,12,1.0,1.0,1.0*30
$GPRMC,155107.583,A,5232.416,N,01324.990,E,313.4,098.4,040821,000.0,W*7D
$GPGGA,155108.583,5232.396,N,01325.129,E,1,12,1.0,0.0,M,0.0,M,,*6D
$GPGSA,A,3,01,02,03,04,05,06,07,08,09,10,11,12,1.0,1.0,1.0*30
$GPRMC,155108.583,A,5232.396,N,01325.129,E,365.4,098.3,040821,000.0,W*70
$GPGGA,155109.583,5232.372,N,01325.291,E,1,12,1.0,0.0,M,0.0,M,,*66
$GPGSA,A,3,01,02,03,04,05,06,07,08,09,10,11,12,1.0,1.0,1.0*30
$GPRMC,155109.583,A,5232.372,N,01325.291,E,346.4,100.0,040821,000.0,W*79
$GPGGA,155110.583,5232.346,N,01325.443,E,1,12,1.0,0.0,M,0.0,M,,*60
$GPGSA,A,3,01,02,03,04,05,06,07,08,09,10,11,12,1.0,1.0,1.0*30
$GPRMC,155110.583,A,5232.346,N,01325.443,E,299.9,205.7,040821,000.0,W*70
$GPGGA,155111.583,5232.266,N,01325.404,E,1,12,1.0,0.0,M,0.0,M,,*61
$GPGSA,A,3,01,02,03,04,05,06,07,08,09,10,11,12,1.0,1.0,1.0*30
$GPRMC,155111.583,A,5232.266,N,01325.404,E,269.5,210.2,040821,000.0,W*73
$GPGGA,155112.583,5232.195,N,01325.363,E,1,12,1.0,0.0,M,0.0,M,,*6B
$GPGSA,A,3,01,02,03,04,05,06,07,08,09,10,11,12,1.0,1.0,1.0*30
$GPRMC,155112.583,A,5232.195,N,01325.363,E,457.9,214.1,040821,000.0,W*79
$GPGGA,155113.583,5232.078,N,01325.283,E,1,12,1.0,0.0,M,0.0,M,,*67
$GPGSA,A,3,01,02,03,04,05,06,07,08,09,10,11,12,1.0,1.0,1.0*30
$GPRMC,155113.583,A,5232.078,N,01325.283,E,601.3,208.9,040821,000.0,W*7B
$GPGGA,155114.583,5231.920,N,01325.196,E,1,12,1.0,0.0,M,0.0,M,,*60
$GPGSA,A,3,01,02,03,04,05,06,07,08,09,10,11,12,1.0,1.0,1.0*30
$GPRMC,155114.583,A,5231.920,N,01325.196,E,658.7,218.5,040821,000.0,W*79
$GPGGA,155115.583,5231.755,N,01325.064,E,1,12,1.0,0.0,M,0.0,M,,*61
$GPGSA,A,3,01,02,03,04,05,06,07,08,09,10,11,12,1.0,1.0,1.0*30
$GPRMC,155115.583,A,5231.755,N,01325.064,E,624.4,223.2,040821,000.0,W*7F
$GPGGA,155116.583,5231.605,N,01324.923,E,1,12,1.0,0.0,M,0.0,M,,*6D
$GPGSA,A,3,01,02,03,04,05,06,07,08,09,10,11,12,1.0,1.0,1.0*30
$GPRMC,155116.583,A,5231.605,N,01324.923,E,521.0,233.7,040821,000.0,W*75
$GPGGA,155117.583,5231.493,N,01324.771,E,1,12,1.0,0.0,M,0.0,M,,*68
$GPGSA,A,3,01,02,03,04,05,06,07,08,09,10,11,12,1.0,1.0,1.0*30
$GPRMC,155117.583,A,5231.493,N,01324.771,E,647.3,236.0,040821,000.0,W*72
$GPGGA,155118.583,5231.360,N,01324.573,E,1,12,1.0,0.0,M,0.0,M,,*6C
$GPGSA,A,3,01,02,03,04,05,06,07,08,09,10,11,12,1.0,1.0,1.0*30
$GPRMC,155118.583,A,5231.360,N,01324.573,E,203.9,235.5,040821,000.0,W*7E
$GPGGA,155119.583,5231.318,N,01324.511,E,1,12,1.0,0.0,M,0.0,M,,*66
$GPGSA,A,3,01,02,03,04,05,06,07,08,09,10,11,12,1.0,1.0,1.0*30
$GPRMC,155119.583,A,5231.318,N,01324.511,E,081.4,227.5,040821,000.0,W*72
$GPGGA,155120.583,5231.299,N,01324.490,E,1,12,1.0,0.0,M,0.0,M,,*6C
$GPGSA,A,3,01,02,03,04,05,06,07,08,09,10,11,12,1.0,1.0,1.0*30
$GPRMC,155120.583,A,5231.299,N,01324.490,E,091.0,250.8,040821,000.0,W*70
$GPGGA,155121.583,5231.287,N,01324.454,E,1,12,1.0,0.0,M,0.0,M,,*6A
$GPGSA,A,3,01,02,03,04,05,06,07,08,09,10,11,12,1.0,1.0,1.0*30
$GPRMC,155121.583,A,5231.287,N,01324.454,E,104.1,242.4,040821,000.0,W*75
$GPGGA,155122.583,5231.268,N,01324.418,E,1,12,1.0,0.0,M,0.0,M,,*60
$GPGSA,A,3,01,02,03,04,05,06,07,08,09,10,11,12,1.0,1.0,1.0*30
$GPRMC,155122.583,A,5231.268,N,01324.418,E,360.0,241.9,040821,000.0,W*70
$GPGGA,155123.583,5231.202,N,01324.294,E,1,12,1.0,0.0,M,0.0,M,,*6F
$GPGSA,A,3,01,02,03,04,05,06,07,08,09,10,11,12,1.0,1.0,1.0*30
$GPRMC,155123.583,A,5231.202,N,01324.294,E,469.8,127.4,040821,000.0,W*77
$GPGGA,155124.583,5231.100,N,01324.428,E,1,12,1.0,0.0,M,0.0,M,,*68
$GPGSA,A,3,01,02,03,04,05,06,07,08,09,10,11,12,1.0,1.0,1.0*30
$GPRMC,155124.583,A,5231.100,N,01324.428,E,385.2,127.0,040821,000.0,W*7B
$GPGGA,155125.583,5231.017,N,01324.539,E,1,12,1.0,0.0,M,0.0,M,,*6F
$GPGSA,A,3,01,02,03,04,05,06,07,08,09,10,11,12,1.0,1.0,1.0*30
$GPRMC,155125.583,A,5231.017,N,01324.539,E,271.5,120.0,040821,000.0,W*76
$GPGGA,155126.583,5230.965,N,01324.629,E,1,12,1.0,0.0,M,0.0,M,,*63
$GPGSA,A,3,01,02,03,04,05,06,07,08,09,10,11,12,1.0,1.0,1.0*30
$GPRMC,155126.583,A,5230.965,N,01324.629,E,245.1,099.1,040821,000.0,W*7B
$GPGGA,155127.583,5230.948,N,01324.737,E,1,12,1.0,0.0,M,0.0,M,,*63
$GPGSA,A,3,01,02,03,04,05,06,07,08,09,10,11,12,1.0,1.0,1.0*30
$GPRMC,155127.583,A,5230.948,N,01324.737,E,485.5,090.0,040821,000.0,W*7D
$GPGGA,155128.583,5230.948,N,01324.959,E,1,12,1.0,0.0,M,0.0,M,,*6A
$GPGSA,A,3,01,02,03,04,05,06,07,08,09,10,11,12,1.0,1.0,1.0*30
$GPRMC,155128.583,A,5230.948,N,01324.959,E,253.5,097.1,040821,000.0,W*7F
$GPGGA,155129.583,5230.934,N,01325.072,E,1,12,1.0,0.0,M,0.0,M,,*61
$GPGSA,A,3,01,02,03,04,05,06,07,08,09,10,11,12,1.0,1.0,1.0*30
$GPRMC,155129.583,A,5230.934,N,01325.072,E,368.0,187.2,040821,000.0,W*7B
$GPGGA,155130.583,5230.832,N,01325.059,E,1,12,1.0,0.0,M,0.0,M,,*67
$GPGSA,A,3,01,02,03,04,05,06,07,08,09,10,11,12,1.0,1.0,1.0*30
$GPRMC,155130.583,A,5230.832,N,01325.059,E,327.7,197.5,040821,000.0,W*77
$GPGGA,155131.583,5230.743,N,01325.031,E,1,12,1.0,0.0,M,0.0,M,,*61
$GPGSA,A,3,01,02,03,04,05,06,07,08,09,10,11,12,1.0,1.0,1.0*30
$GPRMC,155131.583,A,5230.743,N,01325.031,E,327.1,212.5,040821,000.0,W*79
$GPGGA,155132.583,5230.658,N,01324.977,E,1,12,1.0,0.0,M,0.0,M,,*63
$GPGSA,A,3,01,02,03,04,05,06,07,08,09,10,11,12,1.0,1.0,1.0*30
$GPRMC,155132.583,A,5230.658,N,01324.977,E,671.9,217.1,040821,000.0,W*74
$GPGGA,155133.583,5230.489,N,01324.848,E,1,12,1.0,0.0,M,0.0,M,,*61
$GPGSA,A,3,01,02,03,04,05,06,07,08,09,10,11,12,1.0,1.0,1.0*30
$GPRMC,155133.583,A,5230.489,N,01324.848,E,440.4,214.3,040821,000.0,W*7A
$GPGGA,155134.583,5230.376,N,01324.771,E,1,12,1.0,0.0,M,0.0,M,,*64
$GPGSA,A,3,01,02,03,04,05,06,07,08,09,10,11,12,1.0,1.0,1.0*30
$GPRMC,155134.583,A,5230.376,N,01324.771,E,348.5,219.8,040821,000.0,W*77
$GPGGA,155135.583,5230.290,N,01324.699,E,1,12,1.0,0.0,M,0.0,M,,*6B
$GPGSA,A,3,01,02,03,04,05,06,07,08,09,10,11,12,1.0,1.0,1.0*30
$GPRMC,155135.583,A,5230.290,N,01324.699,E,189.4,219.3,040821,000.0,W*7D
$GPGGA,155136.583,5230.243,N,01324.660,E,1,12,1.0,0.0,M,0.0,M,,*60
$GPGSA,A,3,01,02,03,04,05,06,07,08,09,10,11,12,1.0,1.0,1.0*30
$GPRMC,155136.583,A,5230.243,N,01324.660,E,073.6,248.7,040821,000.0,W*70
$GPGGA,155137.583,5230.232,N,01324.632,E,1,12,1.0,0.0,M,0.0,M,,*60
$GPGSA,A,3,01,02,03,04,05,06,07,08,09,10,11,12,1.0,1.0,1.0*30
$GPRMC,155137.583,A,5230.232,N,01324.632,E,232.1,281.5,040821,000.0,W*77
$GPGGA,155138.583,5230.252,N,01324.531,E,1,12,1.0,0.0,M,0.0,M,,*69
$GPGSA,A,3,01,02,03,04,05,06,07,08,09,10,11,12,1.0,1.0,1.0*30
$GPRMC,155138.583,A,5230.252,N,01324.531,E,341.8,284.1,040821,000.0,W*73
$GPGGA,155139.583,5230.288,N,01324.387,E,1,12,1.0,0.0,M,0.0,M,,*64
$GPGSA,A,3,01,02,03,04,05,06,07,08,09,10,11,12,1.0,1.0,1.0*30
$GPRMC,155139.583,A,5230.288,N,01324.387,E,473.0,284.7,040821,000.0,W*76
$GPGGA,155140.583,5230.340,N,01324.189,E,1,12,1.0,0.0,M,0.0,M,,*63
$GPGSA,A,3,01,02,03,04,05,06,07,08,09,10,11,12,1.0,1.0,1.0*30
$GPRMC,155140.583,A,5230.340,N,01324.189,E,399.1,286.0,040821,000.0,W*76
$GPGGA,155141.583,5230.387,N,01324.024,E,1,12,1.0,0.0,M,0.0,M,,*6F
$GPGSA,A,3,01,02,03,04,05,06,07,08,09,10,11,12,1.0,1.0,1.0*30
$GPRMC,155141.583,A,5230.387,N,01324.024,E,629.9,279.0,040821,000.0,W*7C
$GPGGA,155142.583,5230.431,N,01323.746,E,1,12,1.0,0.0,M,0.0,M,,*62
$GPGSA,A,3,01,02,03,04,05,06,07,08,09,10,11,12,1.0,1.0,1.0*30
$GPRMC,155142.583,A,5230.431,N,01323.746,E,452.0,262.0,040821,000.0,W*7C
$GPGGA,155143.583,5230.403,N,01323.545,E,1,12,1.0,0.0,M,0.0,M,,*63
$GPGSA,A,3,01,02,03,04,05,06,07,08,09,10,11,12,1.0,1.0,1.0*30
$GPRMC,155143.583,A,5230.403,N,01323.545,E,384.1,269.0,040821,000.0,W*7B
$GPGGA,155144.583,5230.400,N,01323.370,E,1,12,1.0,0.0,M,0.0,M,,*67
$GPGSA,A,3,01,02,03,04,05,06,07,08,09,10,11,12,1.0,1.0,1.0*30
$GPRMC,155144.583,A,5230.400,N,01323.370,E,338.9,268.8,040821,000.0,W*79
$GPGGA,155145.583,5230.397,N,01323.216,E,1,12,1.0,0.0,M,0.0,M,,*6E
$GPGSA,A,3,01,02,03,04,05,06,07,08,09,10,11,12,1.0,1.0,1.0*30
$GPRMC,155145.583,A,5230.397,N,01323.216,E,090.3,270.0,040821,000.0,W*7A
$GPGGA,155146.583,5230.397,N,01323.174,E,1,12,1.0,0.0,M,0.0,M,,*6A
$GPGSA,A,3,01,02,03,04,05,06,07,08,09,10,11,12,1.0,1.0,1.0*30
$GPRMC,155146.583,A,5230.397,N,01323.174,E,486.5,326.8,040821,000.0,W*71
$GPGGA,155147.583,5230.522,N,01323.092,E,1,12,1.0,0.0,M,0.0,M,,*6A
$GPGSA,A,3,01,02,03,04,05,06,07,08,09,10,11,12,1.0,1.0,1.0*30
$GPRMC,155147.583,A,5230.522,N,01323.092,E,304.0,336.2,040821,000.0,W*72
$GPGGA,155148.583,5230.603,N,01323.056,E,1,12,1.0,0.0,M,0.0,M,,*6D
$GPGSA,A,3,01,02,03,04,05,06,07,08,09,10,11,12,1.0,1.0,1.0*30
$GPRMC,155148.583,A,5230.603,N,01323.056,E,321.3,331.4,040821,000.0,W*70
$GPGGA,155149.583,5230.688,N,01323.010,E,1,12,1.0,0.0,M,0.0,M,,*6D
$GPGSA,A,3,01,02,03,04,05,06,07,08,09,10,11,12,1.0,1.0,1.0*30
$GPRMC,155149.583,A,5230.688,N,01323.010,E,561.5,336.1,040821,000.0,W*76
$GPGGA,155150.583,5230.838,N,01322.943,E,1,12,1.0,0.0,M,0.0,M,,*6E
$GPGSA,A,3,01,02,03,04,05,06,07,08,09,10,11,12,1.0,1.0,1.0*30
$GPRMC,155150.583,A,5230.838,N,01322.943,E,282.9,318.3,040821,000.0,W*7D
$GPGGA,155151.583,5230.907,N,01322.881,E,1,12,1.0,0.0,M,0.0,M,,*6D
$GPGSA,A,3,01,02,03,04,05,06,07,08,09,10,11,12,1.0,1.0,1.0*30
$GPRMC,155151.583,A,5230.907,N,01322.881,E,092.7,259.8,040821,000.0,W*7C
$GPGGA,155152.583,5230.900,N,01322.840,E,1,12,1.0,0.0,M,0.0,M,,*64
$GPGSA,A,3,01,02,03,04,05,06,07,08,09,10,11,12,1.0,1.0,1.0*30
$GPRMC,155152.583,A,5230.900,N,01322.840,E,050.0,259.8,040821,000.0,W*7C
$GPGGA,155153.583,5230.896,N,01322.818,E,1,12,1.0,0.0,M,0.0,M,,*66
$GPGSA,A,3,01,02,03,04,05,06,07,08,09,10,11,12,1.0,1.0,1.0*30
$GPRMC,155153.583,A,5230.896,N,01322.818,E,044.8,339.7,040821,000.0,W*7B
$GPGGA,155154.583,5230.908,N,01322.814,E,1,12,1.0,0.0,M,0.0,M,,*6B
$GPGSA,A,3,01,02,03,04,05,06,07,08,09,10,11,12,1.0,1.0,1.0*30
$GPRMC,155154.583,A,5230.908,N,01322.814,E,031.1,076.6,040821,000.0,W*74
$GPGGA,155155.583,5230.912,N,01322.827,E,1,12,1.0,0.0,M,0.0,M,,*61
$GPGSA,A,3,01,02,03,04,05,06,07,08,09,10,11,12,1.0,1.0,1.0*30
$GPRMC,155155.583,A,5230.912,N,01322.827,E,031.1,076.6,040821,000.0,W*7E
